{
  "item": [
    {
      "idx": 1,
      "name": "홍익에너지㈜",
      "address": "서울특별시 송파구 석촌호수로 242,240",
      "latitude": 37.508066,
      "longtitude": 127.103741,
      "num": 2
    },
    {
      "idx": 2,
      "name": "강동엘피지충전소",
      "address": "서울특별시 송파구 삼전로 47, 45-8, 45-18(잠실동)",
      "latitude": 37.503495,
      "longtitude": 127.086879,
      "num": 2
    },
    {
      "idx": 3,
      "name": "현대세차장",
      "address": "서울특별시 송파구 석촌호수로 170(삼전동)",
      "latitude": 37.506505,
      "longtitude": 127.095632,
      "num": 1
    },
    {
      "idx": 4,
      "name": "매일세차장",
      "address": "서울특별시 송파구 오금로19길4(방이동)",
      "latitude": 37.510054,
      "longtitude": 127.113562,
      "num": 1
    },
    {
      "idx": 5,
      "name": "명품손세차장",
      "address": "서울특별시 송파구 오금로 179(방이동)",
      "latitude": 37.509379,
      "longtitude": 127.114475,
      "num": 1
    },
    {
      "idx": 6,
      "name": "가든파이브에너지서비스",
      "address": "서울특별시 송파구 탄천동로 740(장지동)",
      "latitude": 37.475838,
      "longtitude": 127.123639,
      "num": 2
    },
    {
      "idx": 7,
      "name": "상아주유소",
      "address": "서울특별시 송파구 거마로 82(마천동)",
      "latitude": 37.500126,
      "longtitude": 127.147835,
      "num": 2
    },
    {
      "idx": 8,
      "name": "(주)잠실에너지",
      "address": "서울특별시 송파구 송파대로 44길 4(송파동)",
      "latitude": 37.506532,
      "longtitude": 127.106752,
      "num": 2
    },
    {
      "idx": 9,
      "name": "SK네트웍스(주)올림픽주유소",
      "address": "서울특별시 송파구 위례성대로 188(오금동)",
      "latitude": 37.509739,
      "longtitude": 127.131862,
      "num": 2
    },
    {
      "idx": 10,
      "name": "SK네트웍스(주) 방이주유소",
      "address": "서울특별시 송파구 위례성대로 12길38(방이동)",
      "latitude": 37.510673,
      "longtitude": 127.120801,
      "num": 2
    },
    {
      "idx": 11,
      "name": "(주)지에스이앤알송파제일주유소",
      "address": "서울특별시 송파구 삼학사로 50(석촌동)",
      "latitude": 37.501692,
      "longtitude": 127.097232,
      "num": 2
    },
    {
      "idx": 12,
      "name": "정직한주유소",
      "address": "서울특별시 송파구 오금로 455(거여동)",
      "latitude": 37.495576,
      "longtitude": 127.140322,
      "num": 2
    },
    {
      "idx": 13,
      "name": "선우상사",
      "address": "서울특별시 송파구 백제고분로 199(삼전동)",
      "latitude": 37.504341,
      "longtitude": 127.089043,
      "num": 2
    },
    {
      "idx": 14,
      "name": "에스케이네트웍스㈜ 송파주유소",
      "address": "서울특별시 송파구 거마로 5(거여동)",
      "latitude": 37.493759,
      "longtitude": 127.144236,
      "num": 2
    },
    {
      "idx": 15,
      "name": "SK네트웍스(주)서원주유소",
      "address": "서울특별시 송파구 중대로 154(가락동)",
      "latitude": 37.495821,
      "longtitude": 127.124663,
      "num": 2
    },
    {
      "idx": 16,
      "name": "㈜신화에너지서울지점",
      "address": "서울특별시 송파구 가락로 47(석촌동)",
      "latitude": 37.499519,
      "longtitude": 127.101735,
      "num": 2
    },
    {
      "idx": 17,
      "name": "㈜뉴명성산업남성주유소",
      "address": "서울특별시 송파구 백제고분로 474(방이동)",
      "latitude": 37.512616,
      "longtitude": 127.114041,
      "num": 2
    },
    {
      "idx": 18,
      "name": "(주)남경석유 세영주유소",
      "address": "서울특별시 송파구 동남로 298(오금동)",
      "latitude": 37.50197973,
      "longtitude": 127.138045,
      "num": 2
    },
    {
      "idx": 19,
      "name": "대성주유소",
      "address": "서울특별시 송파구 마천로 230(마천동)",
      "latitude": 37.500049,
      "longtitude": 127.143135,
      "num": 2
    },
    {
      "idx": 20,
      "name": "우리주유소",
      "address": "서울특별시 송파구 동남로 153(가락동)",
      "latitude": 37.49246988,
      "longtitude": 127.127385,
      "num": 2
    },
    {
      "idx": 21,
      "name": "(주)삼표에너지훼미리주유소",
      "address": "서울특별시 송파구 중대로 58(문정동)",
      "latitude": 37.491232,
      "longtitude": 127.115356,
      "num": 2
    },
    {
      "idx": 22,
      "name": "백제고분로주유소",
      "address": "서울특별시 송파구 오금로 143(방이동)",
      "latitude": 37.511069,
      "longtitude": 127.111048,
      "num": 2
    },
    {
      "idx": 23,
      "name": "송파알찬주유소",
      "address": "서울특별시 송파구 백제고분로 229(삼전동)",
      "latitude": 37.503563,
      "longtitude": 127.092213,
      "num": 2
    },
    {
      "idx": 24,
      "name": "(주)유진주유소",
      "address": "서울특별시 송파구 동남로325(오금동)",
      "latitude": 37.504524,
      "longtitude": 127.138385,
      "num": 2
    },
    {
      "idx": 25,
      "name": "남성대주유소",
      "address": "서울특별시 송파구 송파대로 52(장지동)",
      "latitude": 37.475372,
      "longtitude": 127.127532,
      "num": 2
    },
    {
      "idx": 26,
      "name": "완불주유소",
      "address": "서울특별시 송파구 송파대로 3(장지동)",
      "latitude": 37.471164,
      "longtitude": 127.126137,
      "num": 2
    },
    {
      "idx": 27,
      "name": "대신석유(주)진양주유소",
      "address": "서울특별시 송파구 올림픽로 499(풍납동)",
      "latitude": 37.527013,
      "longtitude": 127.118063,
      "num": 2
    },
    {
      "idx": 28,
      "name": "한강에너지(주) 퍼스트주유소",
      "address": "서울특별시 송파구 삼학사로 22(석촌동)",
      "latitude": 37.499307,
      "longtitude": 127.097184,
      "num": 2
    },
    {
      "idx": 29,
      "name": "MG새마을금고 송파충전소",
      "address": "서울특별시 송파구 위례중앙로 37",
      "latitude": 37.475515,
      "longtitude": 127.131648,
      "num": 2
    },
    {
      "idx": 30,
      "name": "스마트위례주유소",
      "address": "서울특별시 송파구 위례중앙로43(장지동)",
      "latitude": 37.475353,
      "longtitude": 127.132289,
      "num": 2
    },
    {
      "idx": 31,
      "name": "위례제일주유소",
      "address": "서울특별시 송파구 위례서로 258(거여동)",
      "latitude": 37.487594,
      "longtitude": 127.142056,
      "num": 2
    },
    {
      "idx": 32,
      "name": "홍익에너지㈜",
      "address": "서울특별시 송파구 석촌호수로 242,240",
      "latitude": 37.508066,
      "longtitude": 127.103741,
      "num": 2
    },
    {
      "idx": 33,
      "name": "강동엘피지충전소",
      "address": "서울특별시 송파구 삼전로 47, 45-8, 45-18(잠실동)",
      "latitude": 37.503495,
      "longtitude": 127.086879,
      "num": 2
    },
    {
      "idx": 34,
      "name": "현대세차장",
      "address": "서울특별시 송파구 석촌호수로 170(삼전동)",
      "latitude": 37.506505,
      "longtitude": 127.095632,
      "num": 1
    },
    {
      "idx": 35,
      "name": "매일세차장",
      "address": "서울특별시 송파구 오금로19길4(방이동)",
      "latitude": 37.510054,
      "longtitude": 127.113562,
      "num": 1
    },
    {
      "idx": 36,
      "name": "명품손세차장",
      "address": "서울특별시 송파구 오금로 179(방이동)",
      "latitude": 37.509379,
      "longtitude": 127.114475,
      "num": 1
    },
    {
      "idx": 37,
      "name": "가든파이브에너지서비스",
      "address": "서울특별시 송파구 탄천동로 740(장지동)",
      "latitude": 37.475838,
      "longtitude": 127.123639,
      "num": 2
    },
    {
      "idx": 38,
      "name": "상아주유소",
      "address": "서울특별시 송파구 거마로 82(마천동)",
      "latitude": 37.500126,
      "longtitude": 127.147835,
      "num": 2
    },
    {
      "idx": 39,
      "name": "(주)잠실에너지",
      "address": "서울특별시 송파구 송파대로 44길 4(송파동)",
      "latitude": 37.506532,
      "longtitude": 127.106752,
      "num": 2
    },
    {
      "idx": 40,
      "name": "SK네트웍스(주)올림픽주유소",
      "address": "서울특별시 송파구 위례성대로 188(오금동)",
      "latitude": 37.509739,
      "longtitude": 127.131862,
      "num": 2
    },
    {
      "idx": 41,
      "name": "SK네트웍스(주) 방이주유소",
      "address": "서울특별시 송파구 위례성대로 12길38(방이동)",
      "latitude": 37.510673,
      "longtitude": 127.120801,
      "num": 2
    },
    {
      "idx": 42,
      "name": "(주)지에스이앤알송파제일주유소",
      "address": "서울특별시 송파구 삼학사로 50(석촌동)",
      "latitude": 37.501692,
      "longtitude": 127.097232,
      "num": 2
    },
    {
      "idx": 43,
      "name": "정직한주유소",
      "address": "서울특별시 송파구 오금로 455(거여동)",
      "latitude": 37.495576,
      "longtitude": 127.140322,
      "num": 2
    },
    {
      "idx": 44,
      "name": "선우상사",
      "address": "서울특별시 송파구 백제고분로 199(삼전동)",
      "latitude": 37.504341,
      "longtitude": 127.089043,
      "num": 2
    },
    {
      "idx": 45,
      "name": "에스케이네트웍스㈜ 송파주유소",
      "address": "서울특별시 송파구 거마로 5(거여동)",
      "latitude": 37.493759,
      "longtitude": 127.144236,
      "num": 2
    },
    {
      "idx": 46,
      "name": "SK네트웍스(주)서원주유소",
      "address": "서울특별시 송파구 중대로 154(가락동)",
      "latitude": 37.495821,
      "longtitude": 127.124663,
      "num": 2
    },
    {
      "idx": 47,
      "name": "㈜신화에너지서울지점",
      "address": "서울특별시 송파구 가락로 47(석촌동)",
      "latitude": 37.499519,
      "longtitude": 127.101735,
      "num": 2
    },
    {
      "idx": 48,
      "name": "㈜뉴명성산업남성주유소",
      "address": "서울특별시 송파구 백제고분로 474(방이동)",
      "latitude": 37.512616,
      "longtitude": 127.114041,
      "num": 2
    },
    {
      "idx": 49,
      "name": "(주)남경석유 세영주유소",
      "address": "서울특별시 송파구 동남로 298(오금동)",
      "latitude": 37.50197973,
      "longtitude": 127.138045,
      "num": 2
    },
    {
      "idx": 50,
      "name": "대성주유소",
      "address": "서울특별시 송파구 마천로 230(마천동)",
      "latitude": 37.500049,
      "longtitude": 127.143135,
      "num": 2
    },
    {
      "idx": 51,
      "name": "우리주유소",
      "address": "서울특별시 송파구 동남로 153(가락동)",
      "latitude": 37.49246988,
      "longtitude": 127.127385,
      "num": 2
    },
    {
      "idx": 52,
      "name": "(주)삼표에너지훼미리주유소",
      "address": "서울특별시 송파구 중대로 58(문정동)",
      "latitude": 37.491232,
      "longtitude": 127.115356,
      "num": 2
    },
    {
      "idx": 53,
      "name": "백제고분로주유소",
      "address": "서울특별시 송파구 오금로 143(방이동)",
      "latitude": 37.511069,
      "longtitude": 127.111048,
      "num": 2
    },
    {
      "idx": 54,
      "name": "송파알찬주유소",
      "address": "서울특별시 송파구 백제고분로 229(삼전동)",
      "latitude": 37.503563,
      "longtitude": 127.092213,
      "num": 2
    },
    {
      "idx": 55,
      "name": "(주)유진주유소",
      "address": "서울특별시 송파구 동남로325(오금동)",
      "latitude": 37.504524,
      "longtitude": 127.138385,
      "num": 2
    },
    {
      "idx": 56,
      "name": "남성대주유소",
      "address": "서울특별시 송파구 송파대로 52(장지동)",
      "latitude": 37.475372,
      "longtitude": 127.127532,
      "num": 2
    },
    {
      "idx": 57,
      "name": "완불주유소",
      "address": "서울특별시 송파구 송파대로 3(장지동)",
      "latitude": 37.471164,
      "longtitude": 127.126137,
      "num": 2
    },
    {
      "idx": 58,
      "name": "대신석유(주)진양주유소",
      "address": "서울특별시 송파구 올림픽로 499(풍납동)",
      "latitude": 37.527013,
      "longtitude": 127.118063,
      "num": 2
    },
    {
      "idx": 59,
      "name": "한강에너지(주) 퍼스트주유소",
      "address": "서울특별시 송파구 삼학사로 22(석촌동)",
      "latitude": 37.499307,
      "longtitude": 127.097184,
      "num": 2
    },
    {
      "idx": 60,
      "name": "MG새마을금고 송파충전소",
      "address": "서울특별시 송파구 위례중앙로 37",
      "latitude": 37.475515,
      "longtitude": 127.131648,
      "num": 2
    },
    {
      "idx": 61,
      "name": "스마트위례주유소",
      "address": "서울특별시 송파구 위례중앙로43(장지동)",
      "latitude": 37.475353,
      "longtitude": 127.132289,
      "num": 2
    },
    {
      "idx": 62,
      "name": "위례제일주유소",
      "address": "서울특별시 송파구 위례서로 258(거여동)",
      "latitude": 37.487594,
      "longtitude": 127.142056,
      "num": 2
    }
  ]
}